[{"number_ip":"100.31.228.217","country":"United States","city":"Ashburn","zip":"20149","lat":39.0438,"lon":-77.4874},{"number_ip":"102.131.20.188","country":"South Africa","city":"Sinoville","zip":"0129","lat":-25.681,"lon":28.2142},{"number_ip":"128.126.89.83","country":"United States","city":"Gaithersburg","zip":"20879","lat":39.1519,"lon":-77.2168},{"number_ip":"129.147.142.212","country":"United States","city":"Redwood Shores","zip":"94065","lat":37.5307,"lon":-122.262},{"number_ip":"147.200.58.224","country":"Australia","city":"Paddington","zip":"2021","lat":-33.8826,"lon":151.2256},{"number_ip":"149.29.185.6","country":"United States","city":"New York","zip":"10123","lat":40.7128,"lon":-74.006},{"number_ip":"16.12.49.210","country":"United States","city":"Seattle","zip":"98108","lat":47.6229,"lon":-122.337},{"number_ip":"161.56.64.127","country":"Bolivia","city":"La Paz","zip":"","lat":-16.4897,"lon":-68.1193},{"number_ip":"18.251.129.44","country":"United States","city":"Seattle","zip":"98109","lat":47.6222,"lon":-122.337},{"number_ip":"182.87.32.63","country":"China","city":"Dunhou","zip":"","lat":27.0875,"lon":114.904},{"number_ip":"213.247.29.111","country":"United States","city":"El Dorado Springs","zip":"64744","lat":38.0306,"lon":-94.0897},{"number_ip":"222.110.16.215","country":"South Korea","city":"Seoul","zip":"02878","lat":37.5985,"lon":126.9783},{"number_ip":"223.170.241.180","country":"South Korea","city":"Seoul","zip":"04082","lat":37.5697,"lon":126.903},{"number_ip":"24.8.118.197","country":"United States","city":"Denver","zip":"80228","lat":39.6888,"lon":-105.156},{"number_ip":"28.188.84.240","country":"United States","city":"Whitehall","zip":"43218","lat":39.9747,"lon":-82.8947},{"number_ip":"30.85.41.168","country":"United States","city":"Whitehall","zip":"43218","lat":39.9747,"lon":-82.8947},{"number_ip":"55.126.176.138","country":"United States","city":"Sierra Vista","zip":"85613","lat":31.5552,"lon":-110.35},{"number_ip":"88.10.140.28","country":"Spain","city":"Camarena","zip":"45180","lat":40.0972,"lon":-4.115},{"number_ip":"143.136.129.60","country":"Canada","city":"Toronto","zip":"M6G","lat":43.6644,"lon":-79.4195},{"number_ip":"19.249.181.124","country":"United States","city":"Dearborn","zip":"48121","lat":42.3223,"lon":-83.1763},{"number_ip":"214.20.33.9","country":"United States","city":"Whitehall","zip":"43218","lat":39.9747,"lon":-82.8947},{"number_ip":"3.151.56.57","country":"United States","city":"Seattle","zip":"98109","lat":47.6222,"lon":-122.337},{"number_ip":"37.120.18.221","country":"Germany","city":"Berlin","zip":"10315","lat":52.5132,"lon":13.5148},{"number_ip":"142.252.4.54","country":"United States","city":"Las Vegas","zip":"89107","lat":36.17,"lon":-115.224},{"number_ip":"143.122.120.167","country":"United States","city":"Maplewood","zip":"55144-1000","lat":44.9516,"lon":-92.9952},{"number_ip":"196.166.27.217","country":"South Africa","city":"Bryanston","zip":"2191","lat":-26.0506,"lon":28.0233},{"number_ip":"42.35.186.144","country":"South Korea","city":"Seoul","zip":"04625","lat":37.566,"lon":126.993},{"number_ip":"69.63.93.154","country":"United States","city":"Fortuna Foothills","zip":"85367","lat":32.6578,"lon":-114.412},{"number_ip":"9.218.235.202","country":"United States","city":"Newark","zip":"07175","lat":40.7357,"lon":-74.1724}]