[{"number_ip":"100.31.228.217","country":"United States","city":"Ashburn","zip":"20149","lat":39.0438,"lon":-77.4874},{"number_ip":"102.131.20.188","country":"South Africa","city":"Sinoville","zip":"0129","lat":-25.681,"lon":28.2142},{"number_ip":"128.126.89.83","country":"United States","city":"Gaithersburg","zip":"20879","lat":39.1519,"lon":-77.2168},{"number_ip":"129.147.142.212","country":"United States","city":"Redwood Shores","zip":"94065","lat":37.5307,"lon":-122.262},{"number_ip":"147.200.58.224","country":"Australia","city":"Paddington","zip":"2021","lat":-33.8826,"lon":151.2256},{"number_ip":"149.29.185.6","country":"United States","city":"New York","zip":"10123","lat":40.7128,"lon":-74.006},{"number_ip":"16.12.49.210","country":"United States","city":"Seattle","zip":"98108","lat":47.6229,"lon":-122.337},{"number_ip":"161.56.64.127","country":"Bolivia","city":"La Paz","zip":"","lat":-16.4897,"lon":-68.1193},{"number_ip":"18.251.129.44","country":"United States","city":"Seattle","zip":"98109","lat":47.6222,"lon":-122.337},{"number_ip":"182.87.32.63","country":"China","city":"Dunhou","zip":"","lat":27.0875,"lon":114.904},{"number_ip":"213.247.29.111","country":"United States","city":"El Dorado Springs","zip":"64744","lat":38.0306,"lon":-94.0897},{"number_ip":"222.110.16.215","country":"South Korea","city":"Seoul","zip":"02878","lat":37.5985,"lon":126.9783},{"number_ip":"223.170.241.180","country":"South Korea","city":"Seoul","zip":"04082","lat":37.5697,"lon":126.903},{"number_ip":"24.8.118.197","country":"United States","city":"Denver","zip":"80228","lat":39.6888,"lon":-105.156},{"number_ip":"28.188.84.240","country":"United States","city":"Whitehall","zip":"43218","lat":39.9747,"lon":-82.8947},{"number_ip":"30.85.41.168","country":"United States","city":"Whitehall","zip":"43218","lat":39.9747,"lon":-82.8947},{"number_ip":"55.126.176.138","country":"United States","city":"Sierra Vista","zip":"85613","lat":31.5552,"lon":-110.35},{"number_ip":"88.10.140.28","country":"Spain","city":"Camarena","zip":"45180","lat":40.0972,"lon":-4.115},{"number_ip":"143.136.129.60","country":"Canada","city":"Toronto","zip":"M6G","lat":43.6644,"lon":-79.4195},{"number_ip":"19.249.181.124","country":"United States","city":"Dearborn","zip":"48121","lat":42.3223,"lon":-83.1763},{"number_ip":"214.20.33.9","country":"United States","city":"Whitehall","zip":"43218","lat":39.9747,"lon":-82.8947},{"number_ip":"3.151.56.57","country":"United States","city":"Seattle","zip":"98109","lat":47.6222,"lon":-122.337},{"number_ip":"37.120.18.221","country":"Germany","city":"Berlin","zip":"10315","lat":52.5132,"lon":13.5148},{"number_ip":"142.252.4.54","country":"United States","city":"Las Vegas","zip":"89107","lat":36.17,"lon":-115.224},{"number_ip":"143.122.120.167","country":"United States","city":"Maplewood","zip":"55144-1000","lat":44.9516,"lon":-92.9952},{"number_ip":"196.166.27.217","country":"South Africa","city":"Bryanston","zip":"2191","lat":-26.0506,"lon":28.0233},{"number_ip":"42.35.186.144","country":"South Korea","city":"Seoul","zip":"04625","lat":37.566,"lon":126.993},{"number_ip":"69.63.93.154","country":"United States","city":"Fortuna Foothills","zip":"85367","lat":32.6578,"lon":-114.412},{"number_ip":"9.218.235.202","country":"United States","city":"Newark","zip":"07175","lat":40.7357,"lon":-74.1724},{"number_ip":"104.248.236.204","country":"United States","city":"North Bergen","zip":"07047","lat":40.793,"lon":-74.0247},{"number_ip":"107.178.232.243","country":"Canada","city":"Montreal","zip":"H4X","lat":45.5017,"lon":-73.5673},{"number_ip":"108.62.1.23","country":"United States","city":"Washington","zip":"20068","lat":38.9072,"lon":-77.0369},{"number_ip":"108.62.1.28","country":"United States","city":"Washington","zip":"20068","lat":38.9072,"lon":-77.0369},{"number_ip":"116.202.113.215","country":"Germany","city":"Falkenstein","zip":"08223","lat":50.475,"lon":12.365},{"number_ip":"129.88.46.51","country":"France","city":"Saint-Martin-le-Vinoux","zip":"38950","lat":45.2017,"lon":5.7144},{"number_ip":"129.88.54.26","country":"France","city":"Saint-Martin-le-Vinoux","zip":"38950","lat":45.2017,"lon":5.7144},{"number_ip":"13.236.195.181","country":"Australia","city":"Sydney","zip":"2000","lat":-33.8591,"lon":151.2002},{"number_ip":"13.65.185.86","country":"United States","city":"San Antonio","zip":"78205","lat":29.4167,"lon":-98.5},{"number_ip":"13.66.139.34","country":"United States","city":"Quincy","zip":"98848","lat":47.233,"lon":-119.852},{"number_ip":"13.66.139.78","country":"United States","city":"Quincy","zip":"98848","lat":47.233,"lon":-119.852},{"number_ip":"13.66.139.99","country":"United States","city":"Quincy","zip":"98848","lat":47.233,"lon":-119.852},{"number_ip":"13.80.183.173","country":"Netherlands","city":"Amsterdam","zip":"1011","lat":52.3667,"lon":4.9},{"number_ip":"134.0.11.216","country":"Spain","city":"Madrid","zip":"28001","lat":40.4168,"lon":-3.70379},{"number_ip":"139.47.6.86","country":"Spain","city":"Donostia \/ San Sebastian","zip":"20018","lat":43.2974,"lon":-2.00894},{"number_ip":"142.234.202.46","country":"United States","city":"New York","zip":"10123","lat":40.7128,"lon":-74.006},{"number_ip":"143.244.39.189","country":"United Kingdom","city":"London","zip":"EC2V","lat":51.5164,"lon":-0.093},{"number_ip":"146.59.155.27","country":"France","city":"Gravelines","zip":"59820","lat":50.9888,"lon":2.12283},{"number_ip":"147.135.181.154","country":"Ivory Coast","city":"Abidjan","zip":"","lat":5.35995,"lon":-4.00826},{"number_ip":"149.12.166.137","country":"United Kingdom","city":"City of London","zip":"E14 9AW","lat":51.4997,"lon":-0.0210282},{"number_ip":"149.12.166.201","country":"United Kingdom","city":"City of London","zip":"E14 9AW","lat":51.4997,"lon":-0.0210282},{"number_ip":"149.12.166.216","country":"United Kingdom","city":"City of London","zip":"E14 9AW","lat":51.4997,"lon":-0.0210282},{"number_ip":"149.12.166.250","country":"United Kingdom","city":"City of London","zip":"E14 9AW","lat":51.4997,"lon":-0.0210282},{"number_ip":"149.12.166.26","country":"United Kingdom","city":"City of London","zip":"E14 9AW","lat":51.4997,"lon":-0.0210282},{"number_ip":"149.12.166.9","country":"United Kingdom","city":"City of London","zip":"E14 9AW","lat":51.4997,"lon":-0.0210282},{"number_ip":"149.12.166.90","country":"United Kingdom","city":"City of London","zip":"E14 9AW","lat":51.4997,"lon":-0.0210282},{"number_ip":"154.47.76.116","country":"United Kingdom","city":"City of London","zip":"E14 9UB","lat":51.4997,"lon":-0.0213869},{"number_ip":"154.47.76.119","country":"United Kingdom","city":"City of London","zip":"E14 9UB","lat":51.4997,"lon":-0.0213869},{"number_ip":"154.47.76.227","country":"United Kingdom","city":"City of London","zip":"E14 9UB","lat":51.4997,"lon":-0.0213869},{"number_ip":"154.47.76.29","country":"United Kingdom","city":"City of London","zip":"E14 9UB","lat":51.4997,"lon":-0.0213869},{"number_ip":"154.51.173.136","country":"United Kingdom","city":"City of London","zip":"E14 9UB","lat":51.4997,"lon":-0.0213869},{"number_ip":"154.51.173.166","country":"United Kingdom","city":"City of London","zip":"E14 9UB","lat":51.4997,"lon":-0.0213869},{"number_ip":"154.51.173.26","country":"United Kingdom","city":"City of London","zip":"E14 9UB","lat":51.4997,"lon":-0.0213869},{"number_ip":"154.51.173.28","country":"United Kingdom","city":"City of London","zip":"E14 9UB","lat":51.4997,"lon":-0.0213869},{"number_ip":"154.51.173.38","country":"United Kingdom","city":"City of London","zip":"E14 9UB","lat":51.4997,"lon":-0.0213869},{"number_ip":"154.51.173.90","country":"United Kingdom","city":"City of London","zip":"E14 9UB","lat":51.4997,"lon":-0.0213869},{"number_ip":"154.60.69.103","country":"United Kingdom","city":"City of London","zip":"E14 9UB","lat":51.4997,"lon":-0.0213869},{"number_ip":"154.60.69.2","country":"United Kingdom","city":"City of London","zip":"E14 9UB","lat":51.4997,"lon":-0.0213869},{"number_ip":"154.60.69.28","country":"United Kingdom","city":"City of London","zip":"E14 9UB","lat":51.4997,"lon":-0.0213869},{"number_ip":"156.146.36.105","country":"United States","city":"New York","zip":"10118","lat":40.7126,"lon":-74.0066},{"number_ip":"159.89.98.96","country":"Germany","city":"Frankfurt am Main","zip":"60313","lat":50.1188,"lon":8.6843},{"number_ip":"162.142.125.50","country":"United States","city":"Ann Arbor","zip":"48104","lat":42.2809,"lon":-83.7489},{"number_ip":"165.22.12.127","country":"United States","city":"North Bergen","zip":"07047","lat":40.793,"lon":-74.0247},{"number_ip":"167.248.133.49","country":"United States","city":"Ann Arbor","zip":"48104","lat":42.2809,"lon":-83.7489},{"number_ip":"168.119.244.98","country":"Germany","city":"Nuremberg","zip":"90403","lat":49.4521,"lon":11.0767},{"number_ip":"62.171.148.95","country":"Germany","city":"Nuremberg","zip":"90475","lat":49.405,"lon":11.1617},{"number_ip":"64.246.161.190","country":"United States","city":"Arlington","zip":"98223","lat":48.183,"lon":-122.1136},{"number_ip":"64.246.165.150","country":"United States","city":"Arlington","zip":"98223","lat":48.183,"lon":-122.1136},{"number_ip":"64.246.165.190","country":"United States","city":"Arlington","zip":"98223","lat":48.183,"lon":-122.1136},{"number_ip":"66.231.185.70","country":"United States","city":"San Jose","zip":"95141","lat":37.3382,"lon":-121.886},{"number_ip":"66.231.185.75","country":"United States","city":"San Jose","zip":"95141","lat":37.3382,"lon":-121.886},{"number_ip":"66.249.64.201","country":"Canada","city":"Montreal","zip":"H4X","lat":45.5017,"lon":-73.5673},{"number_ip":"66.249.64.203","country":"Canada","city":"Montreal","zip":"H4X","lat":45.5017,"lon":-73.5673},{"number_ip":"66.249.64.205","country":"Canada","city":"Montreal","zip":"H4X","lat":45.5017,"lon":-73.5673},{"number_ip":"66.249.66.153","country":"Canada","city":"Montreal","zip":"H4X","lat":45.5017,"lon":-73.5673},{"number_ip":"66.249.66.154","country":"Canada","city":"Montreal","zip":"H4X","lat":45.5017,"lon":-73.5673},{"number_ip":"66.249.66.201","country":"Canada","city":"Montreal","zip":"H4X","lat":45.5017,"lon":-73.5673},{"number_ip":"66.249.66.203","country":"Canada","city":"Montreal","zip":"H4X","lat":45.5017,"lon":-73.5673},{"number_ip":"66.249.66.41","country":"Canada","city":"Montreal","zip":"H4X","lat":45.5017,"lon":-73.5673},{"number_ip":"66.249.66.43","country":"Canada","city":"Montreal","zip":"H4X","lat":45.5017,"lon":-73.5673},{"number_ip":"66.249.66.45","country":"Canada","city":"Montreal","zip":"H4X","lat":45.5017,"lon":-73.5673},{"number_ip":"66.249.66.47","country":"Canada","city":"Montreal","zip":"H4X","lat":45.5017,"lon":-73.5673},{"number_ip":"66.249.66.86","country":"Canada","city":"Montreal","zip":"H4X","lat":45.5017,"lon":-73.5673},{"number_ip":"66.249.75.41","country":"Canada","city":"Montreal","zip":"H4X","lat":45.5017,"lon":-73.5673},{"number_ip":"66.249.93.103","country":"South Korea","city":"Seoul","zip":"03153","lat":37.5665,"lon":126.978},{"number_ip":"66.249.93.106","country":"South Korea","city":"Seoul","zip":"03153","lat":37.5665,"lon":126.978},{"number_ip":"67.218.250.129","country":"Spain","city":"Reus","zip":"43205","lat":41.1561,"lon":1.1069},{"number_ip":"69.161.194.77","country":"Australia","city":"Mascot","zip":"2020","lat":-33.9214,"lon":151.188},{"number_ip":"74.120.14.53","country":"United States","city":"Ann Arbor","zip":"48104","lat":42.2809,"lon":-83.7489},{"number_ip":"74.120.14.54","country":"United States","city":"Ann Arbor","zip":"48104","lat":42.2809,"lon":-83.7489},{"number_ip":"74.120.14.55","country":"United States","city":"Ann Arbor","zip":"48104","lat":42.2809,"lon":-83.7489},{"number_ip":"77.111.246.37","country":"United States","city":"Washington","zip":"20146","lat":38.9071,"lon":-77.0368},{"number_ip":"77.111.247.100","country":"Sweden","city":"Link\u00f6ping","zip":"582 22","lat":58.4122,"lon":15.6258},{"number_ip":"77.111.247.146","country":"Sweden","city":"Link\u00f6ping","zip":"582 22","lat":58.4122,"lon":15.6258},{"number_ip":"77.111.247.214","country":"Sweden","city":"Link\u00f6ping","zip":"582 22","lat":58.4122,"lon":15.6258},{"number_ip":"77.111.247.81","country":"Sweden","city":"Link\u00f6ping","zip":"582 22","lat":58.4122,"lon":15.6258},{"number_ip":"77.67.20.130","country":"Germany","city":"Frankfurt am Main","zip":"60313","lat":50.1109,"lon":8.68213},{"number_ip":"77.67.20.133","country":"Germany","city":"Frankfurt am Main","zip":"60313","lat":50.1109,"lon":8.68213},{"number_ip":"77.67.20.142","country":"Germany","city":"Frankfurt am Main","zip":"60313","lat":50.1109,"lon":8.68213},{"number_ip":"77.81.139.41","country":"Ireland","city":"Dublin","zip":"D02","lat":53.3331,"lon":-6.2489},{"number_ip":"77.81.139.44","country":"Ireland","city":"Dublin","zip":"D02","lat":53.3331,"lon":-6.2489},{"number_ip":"78.47.173.55","country":"Germany","city":"Falkenstein","zip":"08223","lat":50.475,"lon":12.365},{"number_ip":"79.137.50.207","country":"France","city":"Gravelines","zip":"59820","lat":50.9871,"lon":2.12554},{"number_ip":"79.162.133.195","country":"Spain","city":"Barcelona","zip":"08021","lat":41.3888,"lon":2.159},{"number_ip":"8.210.239.61","country":"Singapore","city":"Singapore","zip":"","lat":1.28419,"lon":103.851},{"number_ip":"80.28.217.79","country":"Spain","city":"Barcelona","zip":"08018","lat":41.3888,"lon":2.159},{"number_ip":"80.82.221.53","country":"Germany","city":"D\u00fcsseldorf","zip":"40547","lat":51.2429,"lon":6.7428},{"number_ip":"81.44.253.176","country":"Spain","city":"Sabadell","zip":"08204","lat":41.5433,"lon":2.1094},{"number_ip":"82.165.224.102","country":"Germany","city":"Karlsruhe","zip":"76137","lat":49.0034,"lon":8.4275},{"number_ip":"82.165.224.120","country":"Germany","city":"Karlsruhe","zip":"76137","lat":49.0034,"lon":8.4275}]