{"104.236.207.60":{"number_ip":"104.236.207.60","country":"United States","city":"Clifton","zip":"07014","lat":40.8364,"lon":-74.1403},"104.144.64.173":{"number_ip":"104.144.64.173","country":"United Kingdom","city":"London","zip":"NW2 7JA","lat":51.5685,"lon":-0.231},"104.143.92.49":{"number_ip":"104.143.92.49","country":"United States","city":"San Jose","zip":"95141","lat":37.3388,"lon":-121.8916},"103.126.185.242":{"number_ip":"103.126.185.242","country":"Bangladesh","city":"Rajshahi","zip":"6100","lat":24.3633,"lon":88.6072},"103.13.241.82":{"number_ip":"103.13.241.82","country":"Singapore","city":"Singapore","zip":"","lat":1.35208,"lon":103.82},"103.253.25.16":{"number_ip":"103.253.25.16","country":"Singapore","city":"Queenstown Estate","zip":"","lat":1.29546,"lon":103.79},"103.253.25.167":{"number_ip":"103.253.25.167","country":"Singapore","city":"Queenstown Estate","zip":"","lat":1.29546,"lon":103.79},"103.253.25.169":{"number_ip":"103.253.25.169","country":"Singapore","city":"Queenstown Estate","zip":"","lat":1.29546,"lon":103.79},"104.236.44.95":{"number_ip":"104.236.44.95","country":"United States","city":"Clifton","zip":"07014","lat":40.8364,"lon":-74.1403},"104.238.46.185":{"number_ip":"104.238.46.185","country":"United States","city":"Los Angeles","zip":"90060","lat":34.0544,"lon":-118.2441},"84.79.243.70":{"number_ip":"84.79.243.70","country":"Spain","city":"Terrassa","zip":"08225","lat":41.5705,"lon":2.0156}}