[{"number_ip":"100.31.228.217","country":"United States","city":"Ashburn","zip":"20149","lat":39.0438,"lon":-77.4874},{"number_ip":"102.131.20.188","country":"South Africa","city":"Sinoville","zip":"0129","lat":-25.681,"lon":28.2142},{"number_ip":"128.126.89.83","country":"United States","city":"Gaithersburg","zip":"20879","lat":39.1519,"lon":-77.2168},{"number_ip":"129.147.142.212","country":"United States","city":"Redwood Shores","zip":"94065","lat":37.5307,"lon":-122.262},{"number_ip":"147.200.58.224","country":"Australia","city":"Paddington","zip":"2021","lat":-33.8826,"lon":151.2256},{"number_ip":"149.29.185.6","country":"United States","city":"New York","zip":"10123","lat":40.7128,"lon":-74.006},{"number_ip":"16.12.49.210","country":"United States","city":"Seattle","zip":"98108","lat":47.6229,"lon":-122.337},{"number_ip":"161.56.64.127","country":"Bolivia","city":"La Paz","zip":"","lat":-16.4897,"lon":-68.1193},{"number_ip":"18.251.129.44","country":"United States","city":"Seattle","zip":"98109","lat":47.6222,"lon":-122.337},{"number_ip":"182.87.32.63","country":"China","city":"Dunhou","zip":"","lat":27.0875,"lon":114.904},{"number_ip":"213.247.29.111","country":"United States","city":"El Dorado Springs","zip":"64744","lat":38.0306,"lon":-94.0897},{"number_ip":"222.110.16.215","country":"South Korea","city":"Seoul","zip":"02878","lat":37.5985,"lon":126.9783},{"number_ip":"223.170.241.180","country":"South Korea","city":"Seoul","zip":"04082","lat":37.5697,"lon":126.903},{"number_ip":"24.8.118.197","country":"United States","city":"Denver","zip":"80228","lat":39.6888,"lon":-105.156},{"number_ip":"28.188.84.240","country":"United States","city":"Whitehall","zip":"43218","lat":39.9747,"lon":-82.8947},{"number_ip":"30.85.41.168","country":"United States","city":"Whitehall","zip":"43218","lat":39.9747,"lon":-82.8947},{"number_ip":"55.126.176.138","country":"United States","city":"Sierra Vista","zip":"85613","lat":31.5552,"lon":-110.35},{"number_ip":"88.10.140.28","country":"Spain","city":"Camarena","zip":"45180","lat":40.0972,"lon":-4.115}]