[{"number_ip":"104.248.236.204","country":"United States","city":"North Bergen","zip":"07047","lat":40.793,"lon":-74.0247,"cant":2,"created_at":"27-11-2020 11:35"},{"number_ip":"107.178.232.243","country":"Canada","city":"Montreal","zip":"H4X","lat":45.5017,"lon":-73.5673,"cant":1,"created_at":"21-10-2020 19:46"},{"number_ip":"108.62.1.23","country":"United States","city":"Washington","zip":"20068","lat":38.9072,"lon":-77.0369,"cant":1,"created_at":"15-10-2020 13:59"},{"number_ip":"108.62.1.28","country":"United States","city":"Washington","zip":"20068","lat":38.9072,"lon":-77.0369,"cant":1,"created_at":"10-12-2020 10:42"},{"number_ip":"116.202.113.215","country":"Germany","city":"Falkenstein","zip":"08223","lat":50.475,"lon":12.365,"cant":1,"created_at":"16-10-2020 20:49"},{"number_ip":"129.88.46.51","country":"France","city":"Saint-Martin-le-Vinoux","zip":"38950","lat":45.2017,"lon":5.7144,"cant":1,"created_at":"26-10-2020 23:08"},{"number_ip":"129.88.54.26","country":"France","city":"Saint-Martin-le-Vinoux","zip":"38950","lat":45.2017,"lon":5.7144,"cant":2,"created_at":"29-11-2020 13:06"},{"number_ip":"13.236.195.181","country":"Australia","city":"Sydney","zip":"2000","lat":-33.8591,"lon":151.2002,"cant":1,"created_at":"15-11-2020 01:57"},{"number_ip":"13.65.185.86","country":"United States","city":"San Antonio","zip":"78205","lat":29.4167,"lon":-98.5,"cant":2,"created_at":"22-11-2020 23:07"},{"number_ip":"13.66.139.34","country":"United States","city":"Quincy","zip":"98848","lat":47.233,"lon":-119.852,"cant":6,"created_at":"16-11-2020 11:11"},{"number_ip":"13.66.139.78","country":"United States","city":"Quincy","zip":"98848","lat":47.233,"lon":-119.852,"cant":1,"created_at":"17-11-2020 09:29"},{"number_ip":"13.66.139.99","country":"United States","city":"Quincy","zip":"98848","lat":47.233,"lon":-119.852,"cant":1,"created_at":"11-11-2020 09:50"},{"number_ip":"13.80.183.173","country":"Netherlands","city":"Amsterdam","zip":"1011","lat":52.3667,"lon":4.9,"cant":3,"created_at":"07-12-2020 17:20"},{"number_ip":"134.0.11.216","country":"Spain","city":"Madrid","zip":"28001","lat":40.4168,"lon":-3.70379,"cant":1,"created_at":"14-10-2020 05:08"},{"number_ip":"139.47.6.86","country":"Spain","city":"Donostia \/ San Sebastian","zip":"20018","lat":43.2974,"lon":-2.00894,"cant":2,"created_at":"06-11-2020 10:53"},{"number_ip":"142.234.202.46","country":"United States","city":"New York","zip":"10123","lat":40.7128,"lon":-74.006,"cant":1,"created_at":"14-11-2020 09:02"},{"number_ip":"143.244.39.189","country":"United Kingdom","city":"London","zip":"EC2V","lat":51.5164,"lon":-0.093,"cant":1,"created_at":"05-12-2020 22:22"},{"number_ip":"146.59.155.27","country":"France","city":"Gravelines","zip":"59820","lat":50.9888,"lon":2.12283,"cant":1,"created_at":"11-11-2020 18:14"},{"number_ip":"147.135.181.154","country":"Ivory Coast","city":"Abidjan","zip":"","lat":5.35995,"lon":-4.00826,"cant":1,"created_at":"29-11-2020 22:04"},{"number_ip":"149.12.166.137","country":"United Kingdom","city":"City of London","zip":"E14 9AW","lat":51.4997,"lon":-0.0210282,"cant":1,"created_at":"17-11-2020 08:31"},{"number_ip":"149.12.166.201","country":"United Kingdom","city":"City of London","zip":"E14 9AW","lat":51.4997,"lon":-0.0210282,"cant":1,"created_at":"10-12-2020 14:08"},{"number_ip":"149.12.166.216","country":"United Kingdom","city":"City of London","zip":"E14 9AW","lat":51.4997,"lon":-0.0210282,"cant":1,"created_at":"08-12-2020 09:07"},{"number_ip":"149.12.166.250","country":"United Kingdom","city":"City of London","zip":"E14 9AW","lat":51.4997,"lon":-0.0210282,"cant":1,"created_at":"22-11-2020 14:48"},{"number_ip":"149.12.166.26","country":"United Kingdom","city":"City of London","zip":"E14 9AW","lat":51.4997,"lon":-0.0210282,"cant":1,"created_at":"08-12-2020 09:07"},{"number_ip":"149.12.166.9","country":"United Kingdom","city":"City of London","zip":"E14 9AW","lat":51.4997,"lon":-0.0210282,"cant":1,"created_at":"10-12-2020 09:45"},{"number_ip":"149.12.166.90","country":"United Kingdom","city":"City of London","zip":"E14 9AW","lat":51.4997,"lon":-0.0210282,"cant":1,"created_at":"17-11-2020 12:01"},{"number_ip":"154.47.76.116","country":"United Kingdom","city":"City of London","zip":"E14 9UB","lat":51.4997,"lon":-0.0213869,"cant":1,"created_at":"11-11-2020 08:50"},{"number_ip":"154.47.76.119","country":"United Kingdom","city":"City of London","zip":"E14 9UB","lat":51.4997,"lon":-0.0213869,"cant":1,"created_at":"10-11-2020 10:39"},{"number_ip":"154.47.76.227","country":"United Kingdom","city":"City of London","zip":"E14 9UB","lat":51.4997,"lon":-0.0213869,"cant":2,"created_at":"17-11-2020 12:01"},{"number_ip":"154.47.76.29","country":"United Kingdom","city":"City of London","zip":"E14 9UB","lat":51.4997,"lon":-0.0213869,"cant":1,"created_at":"29-11-2020 22:04"},{"number_ip":"154.51.173.136","country":"United Kingdom","city":"City of London","zip":"E14 9UB","lat":51.4997,"lon":-0.0213869,"cant":1,"created_at":"26-11-2020 06:31"},{"number_ip":"154.51.173.166","country":"United Kingdom","city":"City of London","zip":"E14 9UB","lat":51.4997,"lon":-0.0213869,"cant":1,"created_at":"26-11-2020 06:31"},{"number_ip":"154.51.173.26","country":"United Kingdom","city":"City of London","zip":"E14 9UB","lat":51.4997,"lon":-0.0213869,"cant":1,"created_at":"22-11-2020 14:48"},{"number_ip":"154.51.173.28","country":"United Kingdom","city":"City of London","zip":"E14 9UB","lat":51.4997,"lon":-0.0213869,"cant":1,"created_at":"11-11-2020 08:50"},{"number_ip":"154.51.173.38","country":"United Kingdom","city":"City of London","zip":"E14 9UB","lat":51.4997,"lon":-0.0213869,"cant":1,"created_at":"17-11-2020 10:35"},{"number_ip":"154.51.173.90","country":"United Kingdom","city":"City of London","zip":"E14 9UB","lat":51.4997,"lon":-0.0213869,"cant":1,"created_at":"17-11-2020 08:31"},{"number_ip":"154.60.69.103","country":"United Kingdom","city":"City of London","zip":"E14 9UB","lat":51.4997,"lon":-0.0213869,"cant":1,"created_at":"29-11-2020 22:04"},{"number_ip":"154.60.69.2","country":"United Kingdom","city":"City of London","zip":"E14 9UB","lat":51.4997,"lon":-0.0213869,"cant":1,"created_at":"17-11-2020 10:35"},{"number_ip":"154.60.69.28","country":"United Kingdom","city":"City of London","zip":"E14 9UB","lat":51.4997,"lon":-0.0213869,"cant":1,"created_at":"10-12-2020 14:08"},{"number_ip":"156.146.36.105","country":"United States","city":"New York","zip":"10118","lat":40.7126,"lon":-74.0066,"cant":1,"created_at":"09-11-2020 08:46"},{"number_ip":"159.89.98.96","country":"Germany","city":"Frankfurt am Main","zip":"60313","lat":50.1188,"lon":8.6843,"cant":1,"created_at":"15-10-2020 16:15"},{"number_ip":"162.142.125.50","country":"United States","city":"Ann Arbor","zip":"48104","lat":42.2809,"lon":-83.7489,"cant":1,"created_at":"05-11-2020 22:02"},{"number_ip":"165.22.12.127","country":"United States","city":"North Bergen","zip":"07047","lat":40.793,"lon":-74.0247,"cant":1,"created_at":"30-11-2020 05:59"},{"number_ip":"167.248.133.49","country":"United States","city":"Ann Arbor","zip":"48104","lat":42.2809,"lon":-83.7489,"cant":1,"created_at":"21-10-2020 19:05"},{"number_ip":"168.119.244.98","country":"Germany","city":"Nuremberg","zip":"90403","lat":49.4521,"lon":11.0767,"cant":1,"created_at":"18-11-2020 22:42"},{"number_ip":"62.171.148.95","country":"Germany","city":"Nuremberg","zip":"90475","lat":49.405,"lon":11.1617,"cant":1,"created_at":"27-11-2020 23:26"},{"number_ip":"64.246.161.190","country":"United States","city":"Arlington","zip":"98223","lat":48.183,"lon":-122.1136,"cant":1,"created_at":"02-11-2020 00:33"},{"number_ip":"64.246.165.150","country":"United States","city":"Arlington","zip":"98223","lat":48.183,"lon":-122.1136,"cant":1,"created_at":"27-11-2020 03:27"},{"number_ip":"64.246.165.190","country":"United States","city":"Arlington","zip":"98223","lat":48.183,"lon":-122.1136,"cant":1,"created_at":"07-10-2020 02:36"},{"number_ip":"66.231.185.70","country":"United States","city":"San Jose","zip":"95141","lat":37.3382,"lon":-121.886,"cant":1,"created_at":"21-10-2020 05:34"},{"number_ip":"66.231.185.75","country":"United States","city":"San Jose","zip":"95141","lat":37.3382,"lon":-121.886,"cant":1,"created_at":"11-11-2020 08:15"},{"number_ip":"66.249.64.201","country":"Canada","city":"Montreal","zip":"H4X","lat":45.5017,"lon":-73.5673,"cant":2,"created_at":"11-10-2020 17:47"},{"number_ip":"66.249.64.203","country":"Canada","city":"Montreal","zip":"H4X","lat":45.5017,"lon":-73.5673,"cant":2,"created_at":"17-10-2020 23:20"},{"number_ip":"66.249.64.205","country":"Canada","city":"Montreal","zip":"H4X","lat":45.5017,"lon":-73.5673,"cant":1,"created_at":"15-10-2020 12:20"},{"number_ip":"66.249.66.153","country":"Canada","city":"Montreal","zip":"H4X","lat":45.5017,"lon":-73.5673,"cant":1,"created_at":"19-11-2020 01:00"},{"number_ip":"66.249.66.154","country":"Canada","city":"Montreal","zip":"H4X","lat":45.5017,"lon":-73.5673,"cant":1,"created_at":"18-11-2020 19:24"},{"number_ip":"66.249.66.201","country":"Canada","city":"Montreal","zip":"H4X","lat":45.5017,"lon":-73.5673,"cant":2,"created_at":"23-11-2020 10:55"},{"number_ip":"66.249.66.203","country":"Canada","city":"Montreal","zip":"H4X","lat":45.5017,"lon":-73.5673,"cant":3,"created_at":"23-11-2020 19:25"},{"number_ip":"66.249.66.41","country":"Canada","city":"Montreal","zip":"H4X","lat":45.5017,"lon":-73.5673,"cant":8,"created_at":"08-12-2020 22:14"},{"number_ip":"66.249.66.43","country":"Canada","city":"Montreal","zip":"H4X","lat":45.5017,"lon":-73.5673,"cant":3,"created_at":"05-11-2020 10:21"},{"number_ip":"66.249.66.45","country":"Canada","city":"Montreal","zip":"H4X","lat":45.5017,"lon":-73.5673,"cant":3,"created_at":"07-12-2020 17:16"},{"number_ip":"66.249.66.47","country":"Canada","city":"Montreal","zip":"H4X","lat":45.5017,"lon":-73.5673,"cant":2,"created_at":"08-12-2020 22:07"},{"number_ip":"66.249.66.86","country":"Canada","city":"Montreal","zip":"H4X","lat":45.5017,"lon":-73.5673,"cant":1,"created_at":"17-11-2020 00:12"},{"number_ip":"66.249.75.41","country":"Canada","city":"Montreal","zip":"H4X","lat":45.5017,"lon":-73.5673,"cant":1,"created_at":"24-11-2020 06:22"},{"number_ip":"66.249.93.103","country":"South Korea","city":"Seoul","zip":"03153","lat":37.5665,"lon":126.978,"cant":1,"created_at":"06-10-2020 14:03"},{"number_ip":"66.249.93.106","country":"South Korea","city":"Seoul","zip":"03153","lat":37.5665,"lon":126.978,"cant":1,"created_at":"01-12-2020 17:11"},{"number_ip":"67.218.250.129","country":"Spain","city":"Reus","zip":"43205","lat":41.1561,"lon":1.1069,"cant":1,"created_at":"18-10-2020 21:11"},{"number_ip":"69.161.194.77","country":"Australia","city":"Mascot","zip":"2020","lat":-33.9214,"lon":151.188,"cant":1,"created_at":"19-11-2020 16:20"},{"number_ip":"74.120.14.53","country":"United States","city":"Ann Arbor","zip":"48104","lat":42.2809,"lon":-83.7489,"cant":1,"created_at":"26-11-2020 17:26"},{"number_ip":"74.120.14.54","country":"United States","city":"Ann Arbor","zip":"48104","lat":42.2809,"lon":-83.7489,"cant":1,"created_at":"13-11-2020 11:18"},{"number_ip":"74.120.14.55","country":"United States","city":"Ann Arbor","zip":"48104","lat":42.2809,"lon":-83.7489,"cant":1,"created_at":"04-12-2020 10:57"},{"number_ip":"77.111.246.37","country":"United States","city":"Washington","zip":"20146","lat":38.9071,"lon":-77.0368,"cant":1,"created_at":"02-12-2020 10:18"},{"number_ip":"77.111.247.100","country":"Sweden","city":"Link\u00f6ping","zip":"582 22","lat":58.4122,"lon":15.6258,"cant":1,"created_at":"13-11-2020 20:31"},{"number_ip":"77.111.247.146","country":"Sweden","city":"Link\u00f6ping","zip":"582 22","lat":58.4122,"lon":15.6258,"cant":5,"created_at":"08-10-2020 15:28"},{"number_ip":"77.111.247.214","country":"Sweden","city":"Link\u00f6ping","zip":"582 22","lat":58.4122,"lon":15.6258,"cant":1,"created_at":"16-11-2020 10:10"},{"number_ip":"77.111.247.81","country":"Sweden","city":"Link\u00f6ping","zip":"582 22","lat":58.4122,"lon":15.6258,"cant":3,"created_at":"13-11-2020 14:58"},{"number_ip":"77.67.20.130","country":"Germany","city":"Frankfurt am Main","zip":"60313","lat":50.1109,"lon":8.68213,"cant":2,"created_at":"06-11-2020 09:51"},{"number_ip":"77.67.20.133","country":"Germany","city":"Frankfurt am Main","zip":"60313","lat":50.1109,"lon":8.68213,"cant":1,"created_at":"30-11-2020 15:37"},{"number_ip":"77.67.20.142","country":"Germany","city":"Frankfurt am Main","zip":"60313","lat":50.1109,"lon":8.68213,"cant":1,"created_at":"30-11-2020 15:37"},{"number_ip":"77.81.139.41","country":"Ireland","city":"Dublin","zip":"D02","lat":53.3331,"lon":-6.2489,"cant":1,"created_at":"05-11-2020 08:52"},{"number_ip":"77.81.139.44","country":"Ireland","city":"Dublin","zip":"D02","lat":53.3331,"lon":-6.2489,"cant":1,"created_at":"08-11-2020 04:38"},{"number_ip":"78.47.173.55","country":"Germany","city":"Falkenstein","zip":"08223","lat":50.475,"lon":12.365,"cant":1,"created_at":"27-10-2020 20:51"},{"number_ip":"79.137.50.207","country":"France","city":"Gravelines","zip":"59820","lat":50.9871,"lon":2.12554,"cant":2,"created_at":"10-12-2020 14:08"},{"number_ip":"79.162.133.195","country":"Spain","city":"Barcelona","zip":"08021","lat":41.3888,"lon":2.159,"cant":2,"created_at":"09-12-2020 16:58"},{"number_ip":"8.210.239.61","country":"Singapore","city":"Singapore","zip":"","lat":1.28419,"lon":103.851,"cant":1,"created_at":"23-10-2020 09:01"},{"number_ip":"80.28.217.79","country":"Spain","city":"Barcelona","zip":"08018","lat":41.3888,"lon":2.159,"cant":4,"created_at":"21-10-2020 08:55"},{"number_ip":"80.82.221.53","country":"Germany","city":"D\u00fcsseldorf","zip":"40547","lat":51.2429,"lon":6.7428,"cant":1,"created_at":"22-11-2020 14:53"},{"number_ip":"81.44.253.176","country":"Spain","city":"Sabadell","zip":"08204","lat":41.5433,"lon":2.1094,"cant":3,"created_at":"03-12-2020 16:26"},{"number_ip":"82.165.224.102","country":"Germany","city":"Karlsruhe","zip":"76137","lat":49.0034,"lon":8.4275,"cant":1,"created_at":"18-11-2020 04:07"},{"number_ip":"82.165.224.120","country":"Germany","city":"Karlsruhe","zip":"76137","lat":49.0034,"lon":8.4275,"cant":1,"created_at":"07-10-2020 12:42"}]