[{"number_ip":"143.136.129.60","country":"Canada","city":"Toronto","zip":"M6G","lat":43.6644,"lon":-79.4195,"cant":1,"created_at":"01-09-2020 12:24"},{"number_ip":"19.249.181.124","country":"United States","city":"Dearborn","zip":"48121","lat":42.3223,"lon":-83.1763,"cant":1,"created_at":"01-09-2020 12:24"},{"number_ip":"214.20.33.9","country":"United States","city":"Whitehall","zip":"43218","lat":39.9747,"lon":-82.8947,"cant":1,"created_at":"01-09-2020 12:24"},{"number_ip":"3.151.56.57","country":"United States","city":"Seattle","zip":"98109","lat":47.6222,"lon":-122.337,"cant":1,"created_at":"01-09-2020 12:24"},{"number_ip":"37.120.18.221","country":"Germany","city":"Berlin","zip":"10315","lat":52.5132,"lon":13.5148,"cant":1,"created_at":"01-09-2020 12:24"}]